timestamp,px,py,pz,qx,qy,qz,qw,roll,pitch,yaw,vx,vy,vz,bax,bay,baz,bgx,bgy,bgz,lat,lon,alt
1757074450.000000,-0.000029,-0.011046,-0.005995,-0.005910,-0.068612,0.003004,0.997621,179.342,-172.130,-179.700,0.000001,-0.000000,-0.013962,0.162444,0.028534,-0.041122,0.015450,0.000425,-0.004682,31.45928399,120.43623943,14.056457,179.34172417,-172.12954237,-179.700226
1757074451.000000,-0.000550,-0.006076,-0.015965,-0.001770,-0.068364,0.010868,0.997600,179.882,-172.158,-178.760,-0.000993,0.003934,-0.024017,0.162187,0.027193,-0.041252,0.001533,-0.000869,0.005626,31.45928403,120.43623942,14.046487,179.88170591,-172.15824627,-178.759762
1757074452.000000,-0.004491,-0.004772,-0.025801,-0.019181,-0.066214,-0.242869,0.967607,175.999,-173.176,151.581,-0.004085,0.002108,-0.022705,0.157948,0.026439,-0.044834,0.013730,-0.000973,0.097478,31.45928404,120.43623938,14.036651,175.99884632,-173.17587214,151.581050
1757074453.000000,-0.028150,-0.025884,-0.035932,0.040593,-0.061897,0.425338,0.902003,7.254,-4.424,50.773,0.004040,0.029329,-0.024380,0.190286,-0.204897,-0.049168,-0.005840,0.001177,-0.038424,31.45928385,120.43623913,14.026520,7.25356507,-4.42366472,50.772794
1757074454.000000,0.005013,0.213410,-0.040239,0.062536,-0.060658,0.616859,0.782237,9.945,-1.017,76.606,0.022995,0.410956,-0.023890,-0.037915,-0.281782,-0.016090,-0.051345,-0.005728,-0.310630,31.45928601,120.43623948,14.022213,9.94473584,-1.01686654,76.605924
1757074455.000000,0.052807,0.959823,-0.042313,0.108467,-0.056551,0.608038,0.784428,13.837,2.475,75.261,-0.025100,1.000169,0.005917,-0.529097,-0.956353,0.124126,-0.001173,0.000685,-0.003115,31.45929274,120.43623999,14.020139,13.83707071,2.47503940,75.260708
1757074456.000000,-0.179268,2.299390,-0.009479,0.090338,-0.058291,0.604250,0.789508,12.305,0.982,74.751,-0.324902,1.748870,0.025263,-0.041020,-0.797972,0.010268,0.005140,0.002849,0.027161,31.45930483,120.43623754,14.052974,12.30534279,0.98157274,74.751436
1757074457.000000,-0.925184,4.698493,0.019401,0.080724,-0.073225,0.842652,0.527313,12.058,3.372,115.569,-0.862683,2.765168,0.027284,-0.601231,0.047988,0.087594,-0.046111,0.003859,-0.211927,31.45932646,120.43622970,14.081856,12.05803418,3.37203800,115.568908
1757074458.000000,-1.805439,7.904565,0.039038,0.079407,-0.064398,0.872931,0.477010,10.880,4.427,122.270,-0.828843,3.534927,0.028974,-0.515504,0.179086,0.070917,-0.046156,0.004398,-0.208165,31.45935538,120.43622043,14.101498,10.87976692,4.42748631,122.269702
1757074459.000000,-2.373145,11.682452,0.054810,0.097500,-0.073540,0.854237,0.505336,13.011,5.293,118.182,-0.411215,4.154761,0.047364,-0.725800,0.417681,0.138985,-0.039557,0.009035,-0.146126,31.45938945,120.43621446,14.117277,13.01120136,5.29316839,118.181885
1757074460.000000,-2.550054,16.229789,0.057219,0.095267,-0.063085,0.793271,0.598051,12.395,4.341,105.503,0.012647,4.598284,0.013119,-0.734156,0.026984,0.133887,-0.024481,0.000222,-0.086073,31.45943046,120.43621260,14.119698,12.39512062,4.34079857,105.502742
1757074461.000000,-2.380720,20.865981,0.027590,0.113038,-0.058058,0.859942,0.494318,12.335,7.875,119.365,0.299061,4.962312,0.017500,-0.692091,0.151589,0.126774,-0.031838,0.004113,-0.117468,31.45947228,120.43621438,14.090083,12.33466596,7.87512686,119.364787
1757074462.000000,-1.969303,26.171996,0.083012,0.115507,-0.047887,0.893639,0.431015,10.821,9.507,127.600,0.511077,5.470358,0.002377,-0.664594,0.163154,0.116444,-0.033081,0.004019,-0.124711,31.45952013,120.43621871,14.145527,10.82071188,9.50669218,127.600228
1757074463.000000,-1.368122,31.862598,0.036760,0.115746,-0.039876,0.891176,0.436828,10.066,9.873,126.903,0.675028,5.958905,-0.010641,-0.711860,0.101492,0.130315,-0.030346,0.001849,-0.110591,31.45957145,120.43622503,14.099303,10.06606484,9.87287085,126.902864
1757074464.000000,-0.659100,38.113824,0.007982,0.105814,-0.046226,0.873391,0.473132,10.527,8.111,122.361,0.726567,6.390868,-0.039027,-0.707651,0.084382,0.128309,-0.023852,0.000514,-0.088782,31.45962783,120.43623249,14.070562,10.52724754,8.11100367,122.361083
1757074465.000000,0.056346,44.591813,0.005785,0.104113,-0.044365,0.880187,0.460938,10.129,8.185,123.993,0.755819,6.774707,-0.047722,-0.694099,0.072975,0.123032,-0.021930,-0.000058,-0.083641,31.45968626,120.43624002,14.068409,10.12930596,8.18544589,123.992825
1757074466.000000,0.926030,51.585692,0.018682,0.103964,-0.050935,0.895055,0.430666,10.520,8.177,127.856,0.829677,7.032293,-0.033421,-0.719220,0.184965,0.132190,-0.021317,0.000803,-0.080996,31.45974934,120.43624917,14.081361,10.52021032,8.17722992,127.855754
1757074467.000000,1.747880,58.504960,0.025912,0.107370,-0.048940,0.915355,0.384970,10.048,9.142,133.574,0.902478,7.247965,-0.022482,-0.694131,0.182591,0.123992,-0.020852,0.001100,-0.080955,31.45981174,120.43625782,14.088654,10.04837638,9.14201156,133.574305
1757074468.000000,2.739048,66.330730,0.037893,0.113041,-0.042624,0.935723,0.331401,9.054,10.562,140.157,1.020500,7.505688,-0.019661,-0.699961,0.201267,0.125283,-0.021868,0.001547,-0.083628,31.45988232,120.43626825,14.100715,9.05359569,10.56200782,140.156663
1757074469.000000,3.754828,73.748785,-0.000302,0.091055,-0.057443,0.847686,0.519459,11.119,5.434,116.471,1.086080,7.573098,-0.017562,-0.673452,0.099514,0.115129,-0.011791,-0.001121,-0.046281,31.45994922,120.43627894,14.062604,11.11928110,5.43365887,116.471042
1757074470.000000,4.897791,81.324828,0.016099,0.066489,-0.071832,0.724102,0.682712,11.234,-0.103,93.380,1.065658,7.396067,-0.034603,-0.558994,0.053374,0.081475,-0.002705,-0.002149,-0.012671,31.46001755,120.43629096,14.079101,11.23386435,-0.10265083,93.380461
1757074471.000000,5.900821,88.321099,-0.035385,0.073282,-0.068089,0.765479,0.635638,11.389,1.469,100.442,0.993736,7.216424,-0.068591,-0.493797,0.045124,0.063457,-0.003627,-0.001571,-0.019112,31.46008065,120.43630152,14.027715,11.38895850,1.46872845,100.442452
1757074472.000000,6.809735,95.436835,-0.043779,0.072668,-0.065195,0.773606,0.626101,11.067,1.765,101.861,0.882719,7.231508,-0.051930,-0.473927,0.043062,0.057812,-0.003365,-0.001689,-0.018544,31.46014483,120.43631108,14.019426,11.06698935,1.76467801,101.860619
1757074473.000000,7.724772,102.749888,-0.043270,0.072649,-0.064565,0.761976,0.640271,11.040,1.607,99.766,0.891284,7.347206,-0.022765,-0.455363,0.036955,0.052545,-0.002852,-0.001696,-0.015348,31.46021078,120.43632071,14.020053,11.04035772,1.60652849,99.765591
1757074474.000000,8.623058,110.093136,-0.055126,0.073362,-0.061381,0.762088,0.640369,10.814,1.903,99.740,0.872679,7.493732,-0.008537,-0.453747,0.035829,0.052032,-0.002936,-0.001649,-0.014110,31.46027701,120.43633016,14.008323,10.81375503,1.90279603,99.740420
1757074475.000000,9.488368,117.602791,-0.064760,0.076962,-0.068822,0.761753,0.639588,11.735,1.674,99.793,0.877495,7.755160,0.015103,-0.457454,0.060806,0.053561,-0.002794,-0.001042,-0.013357,31.46034474,120.43633926,13.998828,11.73503153,1.67423651,99.792565
1757074476.000000,10.445122,125.607958,-0.086423,0.076734,-0.066739,0.764383,0.636691,11.528,1.852,100.228,0.982136,8.076945,0.015839,-0.470423,0.066098,0.057213,-0.002978,-0.000986,-0.013592,31.46041694,120.43634933,13.977323,11.52784541,1.85230276,100.227946
1757074477.000000,11.473302,133.701821,-0.076715,0.077849,-0.068565,0.756448,0.645775,11.792,1.675,98.853,1.122212,8.329476,0.068287,-0.483686,0.059846,0.060821,-0.002779,-0.001167,-0.012540,31.46048994,120.43636015,13.987200,11.79231878,1.67453031,98.852723
1757074478.000000,12.650090,142.104641,-0.037919,0.078369,-0.064966,0.749876,0.653700,11.537,1.868,97.651,1.209374,8.391726,0.075344,-0.498202,0.053204,0.064727,-0.002642,-0.001431,-0.011369,31.46056572,120.43637253,14.026184,11.53690098,1.86805915,97.651026
1757074479.000000,13.834728,150.431412,0.018049,0.074043,-0.065071,0.766750,0.634332,11.176,1.776,100.624,1.199223,8.438478,0.018298,-0.489583,0.056106,0.062470,-0.002817,-0.001147,-0.012993,31.46064082,120.43638499,14.082349,11.17557159,1.77596674,100.624374
1757074480.000000,15.056635,159.124496,0.022555,0.075082,-0.065322,0.767703,0.633030,11.272,1.867,100.799,1.187109,8.573072,-0.003795,-0.489142,0.055501,0.062338,-0.002724,-0.001133,-0.012365,31.46071922,120.43639785,14.087073,11.27154298,1.86700305,100.799334
1757074481.000000,16.227721,167.622860,-0.003589,0.075553,-0.064574,0.778006,0.620345,11.207,2.146,102.655,1.178993,8.724469,0.032943,-0.497526,0.059902,0.064662,-0.002881,-0.001251,-0.013024,31.46079587,120.43641017,14.061153,11.20688996,2.14590492,102.655082
1757074482.000000,17.413157,176.477431,-0.014567,0.077083,-0.062522,0.787000,0.608917,11.098,2.590,104.289,1.205346,8.856078,0.017593,-0.506995,0.064614,0.067275,-0.003120,-0.001181,-0.013482,31.46087573,120.43642264,14.050421,11.09760679,2.58994779,104.288765
1757074483.000000,18.559473,185.268492,0.113746,0.069535,-0.067409,0.769113,0.631732,11.046,1.249,101.081,1.166645,8.919244,-0.012966,-0.489229,0.064163,0.062505,-0.002073,-0.001275,-0.010553,31.46095501,120.43643471,14.178990,11.04565357,1.24867424,101.081452
1757074484.000000,19.797357,194.392238,0.110760,0.072620,-0.063885,0.780187,0.618023,10.927,1.968,103.043,1.177556,8.865186,-0.003144,-0.490198,0.063940,0.062721,-0.002442,-0.001262,-0.011486,31.46103730,120.43644773,14.176284,10.92700771,1.96848969,103.042873
1757074485.000000,20.906669,203.077686,0.040674,0.068333,-0.073072,0.777248,0.621190,11.450,0.885,102.646,1.069006,8.820789,0.038494,-0.502176,0.066830,0.065925,-0.001939,-0.001276,-0.010524,31.46111563,120.43645940,14.106476,11.44974696,0.88469785,102.646441
1757074486.000000,22.033704,211.955496,-0.028382,0.074857,-0.074972,0.761995,0.638858,12.119,1.048,99.936,1.114697,8.704511,0.023519,-0.515297,0.063982,0.069257,-0.001901,-0.000943,-0.008851,31.46119570,120.43647126,14.037717,12.11868514,1.04793327,99.935728
1757074487.000000,23.137721,220.382801,-0.062847,0.071398,-0.079211,0.757881,0.643618,12.238,0.359,99.283,1.138150,8.618618,-0.020172,-0.523477,0.060961,0.071323,-0.001890,-0.000845,-0.008285,31.46127171,120.43648288,14.003545,12.23815797,0.35865639,99.283452
1757074488.000000,24.328382,229.279499,-0.112372,0.066205,-0.068837,0.752592,0.651524,10.946,0.570,98.179,1.181123,8.441384,-0.029670,-0.528394,0.050963,0.072387,-0.001675,-0.001275,-0.007490,31.46135195,120.43649541,13.954343,10.94639080,0.57027998,98.179392
1757074489.000000,25.449973,237.408828,-0.044421,0.063301,-0.078824,0.711698,0.695173,11.551,-1.117,91.459,1.105640,8.093969,-0.016368,-0.506175,0.079242,0.067247,-0.000473,-0.001005,-0.003355,31.46142527,120.43650721,14.022599,11.55135204,-1.11682110,91.458877
1757074490.000000,26.558006,245.491047,0.055623,0.060911,-0.080647,0.715251,0.691522,11.517,-1.398,92.074,1.057959,7.779033,0.033686,-0.481823,0.119784,0.061874,-0.000492,-0.000773,-0.003429,31.46149816,120.43651887,14.122958,11.51749341,-1.39847100,92.073721
1757074491.000000,27.645515,252.984622,-0.039650,0.064018,-0.082080,0.700279,0.706239,11.856,-1.506,89.671,1.095890,7.569662,-0.003599,-0.511706,0.071556,0.068462,-0.000670,-0.000913,-0.002529,31.46156574,120.43653031,14.027986,11.85599632,-1.50568902,89.670779
1757074492.000000,28.805680,260.610351,-0.007889,0.063853,-0.078931,0.679850,0.726289,11.546,-1.595,86.378,1.146174,7.381072,-0.004454,-0.505399,0.087569,0.067221,-0.000594,-0.000974,-0.000900,31.46163452,120.43654252,14.060064,11.54583506,-1.59485713,86.378124
1757074493.000000,29.916002,267.767531,0.008528,0.067376,-0.074195,0.686060,0.720609,11.474,-0.830,87.269,1.150052,7.205617,0.022609,-0.524882,0.037840,0.070984,-0.000816,-0.001173,-0.001447,31.46169907,120.43655420,14.076785,11.47435945,-0.82988024,87.269423
1757074494.000000,30.984526,274.836198,-0.045041,0.066188,-0.074968,0.689523,0.717327,11.441,-0.933,87.829,1.053026,7.134082,-0.008033,-0.539652,0.020420,0.074272,-0.000691,-0.001271,-0.001650,31.46176282,120.43656544,14.023526,11.44146223,-0.93263293,87.829036
1757074495.000000,32.030593,281.838137,-0.050315,0.067284,-0.076347,0.683850,0.722491,11.635,-1.048,86.959,1.058241,6.987604,-0.007863,-0.537693,0.024707,0.073882,-0.000712,-0.001207,-0.001290,31.46182597,120.43657645,14.018567,11.63507501,-1.04835862,86.959087
1757074496.000000,33.147962,288.874891,-0.017436,0.062343,-0.075217,0.683108,0.723753,11.131,-1.358,86.823,1.126664,6.809028,-0.009074,-0.523547,0.047642,0.070898,-0.000615,-0.001242,-0.001443,31.46188944,120.43658820,14.051770,11.13135927,-1.35826985,86.822681
1757074497.000000,34.291061,295.366862,0.034422,0.063601,-0.073138,0.704787,0.702766,11.099,-0.753,90.238,1.153344,6.450552,-0.022617,-0.506248,0.086504,0.067418,-0.000987,-0.001048,-0.003082,31.46194799,120.43660023,14.103934,11.09889332,-0.75335087,90.237740
1757074498.000000,35.438232,301.712296,-0.099731,0.068017,-0.075361,0.721074,0.685381,11.649,-0.299,92.938,1.086252,5.973508,-0.040452,-0.528781,0.046661,0.072160,-0.001192,-0.000959,-0.004130,31.46200522,120.43661230,13.970088,11.64929059,-0.29859492,92.937957
1757074499.000000,36.393374,307.408709,-0.031695,0.058984,-0.077143,0.709787,0.697691,11.062,-1.370,91.118,0.902544,5.533491,-0.039248,-0.511593,0.073769,0.068471,-0.000797,-0.001047,-0.002718,31.46205659,120.43662235,14.038404,11.06199406,-1.37020314,91.117521
1757074500.000000,37.243878,312.891146,0.063731,0.062597,-0.079251,0.714700,0.692102,11.535,-1.159,91.958,0.759156,5.198304,-0.032910,-0.491896,0.110750,0.064346,-0.000785,-0.000789,-0.002628,31.46210604,120.43663130,14.134104,11.53517421,-1.15883787,91.957621
1757074501.000000,37.990271,317.863522,-0.085904,0.065321,-0.076224,0.676027,0.730007,11.448,-1.316,85.735,0.743603,5.030955,-0.029695,-0.509093,0.080067,0.067921,-0.000687,-0.000950,0.000149,31.46215088,120.43663916,13.984723,11.44808029,-1.31622474,85.734770
1757074502.000000,38.657815,322.820705,-0.084660,0.061478,-0.076233,0.684242,0.722649,11.142,-1.493,87.018,0.629253,4.900693,-0.021855,-0.503457,0.087928,0.066727,-0.000483,-0.001065,-0.000224,31.46219559,120.43664618,13.986222,11.14213569,-1.49263595,87.018183
1757074503.000000,39.271712,327.622660,-0.177216,0.065620,-0.075234,0.689176,0.717684,11.415,-1.005,87.779,0.573217,4.693550,-0.030630,-0.504238,0.063081,0.066640,-0.000629,-0.000944,-0.000475,31.46223890,120.43665264,13.893917,11.41519806,-1.00509279,87.778803
1757074504.000000,39.835282,332.193696,-0.253858,0.067347,-0.075208,0.692805,0.714023,11.561,-0.807,88.354,0.587763,4.488384,-0.037372,-0.508576,0.038566,0.067318,-0.000705,-0.001067,-0.000783,31.46228013,120.43665857,13.817518,11.56056365,-0.80700676,88.353547
1757074505.000000,40.405286,336.404318,-0.326503,0.064229,-0.072247,0.696180,0.711328,11.069,-0.765,88.841,0.592538,4.175344,-0.043040,-0.514413,0.031118,0.068560,-0.000773,-0.001287,-0.001067,31.46231810,120.43666457,13.745099,11.06870184,-0.76509696,88.840937
1757074506.000000,40.958633,340.313599,-0.275484,0.062862,-0.075853,0.688303,0.718703,11.235,-1.289,87.651,0.551907,3.650938,-0.042383,-0.504134,0.044434,0.066377,-0.000581,-0.001175,-0.000468,31.46235336,120.43667039,13.796332,11.23459754,-1.28901086,87.651252
1757074507.000000,41.391220,343.587548,-0.213820,0.057982,-0.080935,0.667452,0.737967,11.174,-2.410,84.491,0.417523,3.070589,-0.034162,-0.494326,0.073422,0.064532,-0.000168,-0.001116,0.000859,31.46238289,120.43667494,13.858176,11.17400195,-2.41030893,84.491106
1757074508.000000,41.756727,346.284667,-0.244189,0.059915,-0.083033,0.664666,0.740091,11.493,-2.479,84.103,0.307907,2.387013,-0.054551,-0.489578,0.076931,0.063541,-0.000157,-0.000930,0.001044,31.46240721,120.43667879,13.827957,11.49306905,-2.47922632,84.102693
1757074509.000000,42.009489,348.322887,-0.222456,0.054455,-0.079914,0.667658,0.738161,10.795,-2.594,84.503,0.222878,1.801755,-0.051417,-0.479475,0.111334,0.061771,-0.000100,-0.000995,0.001014,31.46242559,120.43668145,13.849804,10.79501588,-2.59429841,84.503129
1757074510.000000,42.211084,349.811957,-0.270122,0.061873,-0.090073,0.641944,0.758925,12.117,-3.284,80.802,0.191376,1.468490,-0.062918,-0.476922,0.138388,0.061582,-0.000054,-0.000485,0.002401,31.46243902,120.43668357,13.802222,12.11663562,-3.28365805,80.801698
1757074511.000000,42.394359,351.308729,-0.276347,0.058696,-0.089741,0.649262,0.752968,11.846,-3.378,81.891,0.167115,1.671153,-0.036594,-0.470537,0.196475,0.060994,-0.000007,-0.000507,0.002107,31.46245252,120.43668550,13.796081,11.84586681,-3.37811080,81.891045
1757074512.000000,42.652179,353.399252,-0.355053,0.062325,-0.094018,0.620875,0.775752,12.354,-3.927,77.769,0.339338,2.605549,0.007516,-0.475204,0.159994,0.061534,0.000122,-0.000363,0.003462,31.46247138,120.43668821,13.717493,12.35372662,-3.92654186,77.769393
1757074513.000000,43.084792,356.817702,-0.356048,0.053444,-0.084412,0.623031,0.775791,10.865,-3.691,77.886,0.516650,3.951675,0.007205,-0.473601,0.152787,0.061096,0.000167,-0.001038,0.003347,31.46250221,120.43669276,13.716693,10.86504742,-3.69113989,77.886421
1757074514.000000,43.644617,361.194345,-0.267978,0.048491,-0.084276,0.616153,0.781602,10.377,-4.128,76.874,0.605500,4.691825,0.036324,-0.470644,0.183396,0.060786,0.000364,-0.001110,0.003612,31.46254168,120.43669865,13.805016,10.37690168,-4.12797572,76.873919
1757074515.000000,44.285134,366.183863,-0.288378,0.050142,-0.085217,0.615196,0.782149,10.589,-4.107,76.754,0.674451,5.403287,0.073798,-0.473388,0.155661,0.061109,0.000350,-0.001198,0.003549,31.46258668,120.43670539,13.784908,10.58882299,-4.10654558,76.754005
1757074516.000000,44.987049,371.906079,-0.071326,0.049144,-0.084013,0.611978,0.784863,10.395,-4.113,76.263,0.739739,5.758187,0.062191,-0.462272,0.157887,0.058743,0.000484,-0.001151,0.003734,31.46263829,120.43671278,14.002299,10.39510991,-4.11320702,76.263312
1757074517.000000,45.717639,377.632358,0.009830,0.032609,-0.093091,0.562542,0.820864,9.169,-6.670,69.381,0.959018,5.684344,0.088605,-0.462357,0.143653,0.058600,0.001365,-0.001334,0.004746,31.46268993,120.43672046,14.083800,9.16911608,-6.66950318,69.381454
1757074518.000000,47.060420,383.090017,0.097076,0.019524,-0.093934,0.494137,0.864074,7.348,-8.224,60.057,1.681279,5.006478,0.133440,-0.460041,0.094759,0.057486,0.001395,-0.001653,0.003993,31.46273916,120.43673459,14.171384,7.34754872,-8.22361634,60.056771
1757074519.000000,49.266949,387.699895,0.254505,0.008877,-0.091344,0.365040,0.926457,4.833,-9.368,43.407,2.795788,4.096201,0.015772,-0.454210,0.042925,0.055596,0.001277,-0.001760,0.003594,31.46278073,120.43675781,14.329111,4.83347151,-9.36780430,43.406812
1757074520.000000,52.811294,391.231312,0.232696,0.010897,-0.079341,0.188629,0.978778,2.973,-8.697,22.043,4.048839,2.969299,0.096512,-0.457409,-0.000007,0.055589,0.000866,-0.001934,0.003621,31.46281258,120.43679510,14.307548,2.97268738,-8.69666548,22.042572
1757074521.000000,57.459025,393.466247,0.194259,0.010340,-0.075902,0.037676,0.996350,1.526,-8.654,4.447,5.331153,1.778628,-0.006398,-0.456329,-0.065959,0.054439,0.000550,-0.001923,0.003936,31.46283274,120.43684401,14.269290,1.52577952,-8.65422675,4.446536
1757074522.000000,63.370927,394.517157,0.202824,0.009267,-0.084468,-0.050713,0.995092,0.574,-9.732,-5.786,6.469312,0.698397,-0.020420,-0.458209,-0.013432,0.055594,0.000389,-0.001451,0.003734,31.46284222,120.43690621,14.277977,0.57412970,-9.73235792,-5.785999
1757074523.000000,70.318239,394.898224,0.169391,0.018321,-0.086150,-0.065041,0.993988,1.467,-10.000,-7.359,7.281767,0.161984,-0.020638,-0.458975,-0.007168,0.055854,0.000017,-0.001258,0.003288,31.46284565,120.43697931,14.244641,1.46719278,-9.99994051,-7.359190
1757074524.000000,77.918349,395.120982,0.157504,0.005302,-0.096353,-0.062100,0.993394,179.916,-168.925,172.838,8.035560,0.094036,0.021332,-0.457146,-0.026456,0.055165,0.000477,-0.000870,0.003020,31.46284766,120.43705928,14.232856,179.91632275,-168.92508399,172.837794
1757074525.000000,86.229286,395.261823,0.076493,-0.003803,-0.097994,-0.067129,0.992913,178.790,-168.808,172.146,8.724970,0.045560,0.022017,-0.455404,-0.043521,0.054702,0.000764,-0.000753,0.002954,31.46284893,120.43714672,14.151960,178.79043894,-168.80848420,172.145931
1757074526.000000,95.564416,395.225959,0.042981,0.000226,-0.093674,-0.069430,0.993179,179.268,-169.275,171.934,9.283831,0.045207,0.041282,-0.453840,-0.058090,0.054278,0.000720,-0.000971,0.003044,31.46284861,120.43724495,14.118579,179.26761811,-169.27469907,171.933548
1757074527.000000,104.832842,395.281003,-0.036399,0.005655,-0.094017,-0.053234,0.994130,0.072,-10.809,-6.123,9.497809,0.170203,0.070455,-0.451956,-0.071712,0.053811,0.000563,-0.000896,0.002743,31.46284910,120.43734247,14.039348,0.07199853,-10.80880083,-6.123479
1757074528.000000,114.477236,395.507549,-0.112448,0.005612,-0.097944,-0.049822,0.993928,0.082,-11.260,-5.731,9.601165,0.280943,0.166116,-0.450411,-0.079771,0.053536,0.000659,-0.000941,0.002827,31.46285114,120.43744395,13.963479,0.08153682,-11.25974849,-5.731185
1757074529.000000,123.782130,395.862657,-0.071311,0.006181,-0.097384,-0.057522,0.993564,0.063,-11.200,-6.621,9.626730,0.320136,0.129390,-0.449494,-0.080808,0.053377,0.000949,-0.000676,0.002923,31.46285435,120.43754185,14.004811,0.06298110,-11.19950510,-6.620665
1757074530.000000,133.853027,396.148947,-0.171632,-0.003476,-0.101571,-0.067635,0.992520,178.793,-168.396,172.081,9.676057,0.226009,0.059395,-0.450248,-0.102484,0.053273,0.001089,-0.000544,0.002913,31.46285693,120.43764781,13.904711,178.79267431,-168.39568436,172.080594
1757074531.000000,143.553041,396.292987,-0.127446,-0.006210,-0.097719,-0.076032,0.992286,178.412,-168.873,171.082,9.772768,0.136898,0.035345,-0.451680,-0.100447,0.053537,0.001135,-0.000670,0.002857,31.46285822,120.43774988,13.949117,178.41244183,-168.87289159,171.082152
1757074532.000000,153.537862,396.266620,-0.007367,0.002231,-0.097203,-0.090834,0.991108,179.227,-168.867,169.452,9.808580,0.066411,0.119516,-0.450521,-0.080562,0.053686,0.000710,-0.000824,0.003365,31.46285799,120.43785494,14.069427,179.22704886,-168.86729781,169.451747
1757074533.000000,163.430424,396.154949,0.056544,0.006825,-0.097774,-0.070974,0.992651,179.981,-168.751,171.819,9.663711,0.086541,0.097098,-0.449996,-0.063313,0.053939,0.000549,-0.000745,0.002944,31.46285698,120.43795902,14.133576,179.98078704,-168.75063547,171.818836
1757074534.000000,173.011768,396.355694,0.137800,0.003459,-0.099018,-0.060344,0.993248,179.703,-168.632,173.017,9.550145,0.153333,0.090406,-0.447444,-0.064323,0.053570,0.000753,-0.000701,0.002761,31.46285879,120.43805984,14.215097,179.70312223,-168.63160918,173.017131
1757074535.000000,182.364850,396.650658,0.252766,-0.001091,-0.102278,-0.065105,0.992623,179.094,-168.293,172.402,9.451074,0.239220,0.026637,-0.447700,-0.074028,0.053392,0.001046,-0.000632,0.002754,31.46286145,120.43815825,14.330342,179.09398051,-168.29317718,172.401957
1757074536.000000,192.027121,396.847253,0.200077,-0.007528,-0.095507,-0.070432,0.992905,178.343,-169.129,171.727,9.351394,0.187732,0.108311,-0.444487,-0.072898,0.052981,0.000876,-0.000864,0.002784,31.46286322,120.43825992,14.277949,178.34267446,-169.12900076,171.727283
1757074537.000000,201.235163,397.011333,0.170141,-0.009548,-0.097145,-0.073194,0.992529,178.063,-168.963,171.378,9.234561,0.139541,0.066228,-0.441535,-0.082451,0.052309,0.000956,-0.000796,0.002622,31.46286469,120.43835680,14.248307,178.06312084,-168.96316390,171.377610
1757074538.000000,210.706687,396.974641,-0.010717,-0.001093,-0.096281,-0.082304,0.991945,178.948,-168.999,170.413,9.105268,-0.133681,0.023353,-0.435181,-0.089361,0.051233,0.000543,-0.000808,0.002491,31.46286436,120.43845646,14.067752,178.94834712,-168.99873039,170.412508
1757074539.000000,219.435511,396.717195,-0.081397,-0.008339,-0.096482,-0.108451,0.989374,177.816,-169.099,167.280,8.984709,-0.573533,-0.002349,-0.431225,-0.089514,0.050664,0.000690,-0.000911,0.002350,31.46286204,120.43854830,13.997350,177.81557628,-169.09946999,167.280452
1757074540.000000,228.414898,395.938724,-0.050731,-0.003815,-0.089514,-0.142544,0.985725,178.077,-169.899,163.373,8.922696,-1.038199,0.024030,-0.431747,-0.090763,0.050702,0.000563,-0.001083,0.002580,31.46285502,120.43864278,14.028282,178.07680705,-169.89896479,163.373184
1757074541.000000,237.268812,394.798531,0.045711,-0.002303,-0.094778,-0.152079,0.983811,178.054,-169.293,162.243,8.846357,-1.273926,0.041558,-0.432829,-0.091632,0.050793,0.000403,-0.000799,0.002514,31.46284473,120.43873594,14.124976,178.05446215,-169.29296054,162.243031
1757074542.000000,245.965841,393.313994,-0.070367,0.003569,-0.098717,-0.154017,0.983118,178.633,-168.744,162.058,8.745844,-1.366579,0.051299,-0.429543,-0.086046,0.050495,0.000268,-0.000738,0.002712,31.46283134,120.43882745,14.009134,178.63336762,-168.74357828,162.057919
1757074543.000000,254.662705,392.068590,-0.147181,-0.003877,-0.095565,-0.142454,0.985170,177.966,-169.211,163.352,8.766216,-1.114165,0.081575,-0.426766,-0.076032,0.050381,0.000539,-0.000809,0.002780,31.46282011,120.43891896,13.932584,177.96590298,-169.21116297,163.352191
1757074544.000000,263.504542,391.066094,-0.311532,-0.008918,-0.096924,-0.128178,0.986963,177.522,-169.104,164.964,8.786466,-0.886841,0.012245,-0.422974,-0.064105,0.050118,0.000730,-0.000824,0.002710,31.46281106,120.43901199,13.768529,177.52233468,-169.10355357,164.964340
1757074545.000000,271.965099,390.416504,-0.156077,-0.013057,-0.100336,-0.121467,0.987425,177.068,-168.757,165.685,8.783396,-0.643750,0.017065,-0.425154,-0.074431,0.050156,0.000703,-0.000789,0.002775,31.46280520,120.43910101,13.924299,177.06847857,-168.75662631,165.685440
1757074546.000000,280.853243,389.839919,-0.196395,-0.007706,-0.099049,-0.113751,0.988530,177.794,-168.809,166.655,8.617694,-0.471344,0.052315,-0.424950,-0.066630,0.050388,0.000518,-0.000879,0.002735,31.46280000,120.43919453,13.884331,177.79351214,-168.80947441,166.655417
1757074547.000000,289.257806,389.451895,-0.169742,-0.005418,-0.098586,-0.107959,0.989240,178.130,-168.821,167.361,8.459146,-0.414497,0.028896,-0.425577,-0.063366,0.050613,0.000434,-0.000834,0.002673,31.46279650,120.43928296,13.911335,178.13036767,-168.82063695,167.360521
1757074548.000000,297.685689,388.824076,-0.268567,-0.007940,-0.094678,-0.099380,0.990503,177.985,-169.282,168.352,8.264726,-0.595713,0.055188,-0.424101,-0.052578,0.050776,0.000505,-0.001016,0.001870,31.46279083,120.43937164,13.812859,177.98501284,-169.28172276,168.352051
1757074549.000000,305.477641,388.241963,-0.222362,-0.001577,-0.094732,-0.106144,0.989827,178.645,-169.210,167.631,7.976116,-0.644897,0.066946,-0.424405,-0.052446,0.050842,0.000251,-0.000963,0.001942,31.46278558,120.43945363,13.859396,178.64479306,-169.21044009,167.630600
1757074550.000000,313.694669,387.593990,-0.095402,-0.002237,-0.095594,-0.099804,0.990402,178.628,-169.111,168.361,7.954452,-0.637592,0.069068,-0.424011,-0.059001,0.050531,0.000300,-0.000877,0.001825,31.46277974,120.43954008,13.986715,178.62801855,-169.11100820,168.360527
1757074551.000000,321.616151,387.062221,-0.015159,-0.003053,-0.099565,-0.099369,0.990052,178.490,-168.665,168.387,7.972170,-0.474001,0.131597,-0.424687,-0.052306,0.050827,0.000307,-0.000839,0.002090,31.46277494,120.43962343,14.067319,178.49024293,-168.66518113,168.387310
1757074552.000000,329.661881,386.547417,-0.085078,-0.005162,-0.096046,-0.107500,0.989542,178.199,-169.107,167.428,7.945565,-0.487646,0.101573,-0.424884,-0.042357,0.051279,0.000331,-0.000925,0.002314,31.46277029,120.43970809,13.997780,178.19881789,-169.10715047,167.428145
1757074553.000000,337.493116,385.971615,-0.096776,-0.004696,-0.096578,-0.116295,0.988497,178.147,-169.056,166.403,7.965394,-0.625497,0.058262,-0.425293,-0.034656,0.051629,0.000271,-0.000944,0.002385,31.46276510,120.43979049,13.986456,178.14695527,-169.05642965,166.402641
1757074554.000000,345.696410,385.282267,-0.105543,0.000358,-0.091044,-0.119123,0.988696,178.778,-169.623,166.149,8.076324,-0.681876,0.086932,-0.425703,-0.028669,0.051907,0.000294,-0.001141,0.002458,31.46275888,120.43987680,13.978085,178.77772260,-169.62349089,166.148651
1757074555.000000,353.746032,384.679302,-0.023769,-0.003968,-0.096788,-0.105746,0.989664,178.347,-169.004,167.643,8.103564,-0.608107,-0.032076,-0.425863,-0.032526,0.051806,0.000311,-0.000878,0.002233,31.46275344,120.43996150,14.060263,178.34656878,-169.00426643,167.642936
1757074556.000000,361.806797,384.169390,-0.063558,-0.009655,-0.096980,-0.093634,0.990825,177.823,-169.026,168.994,8.136498,-0.440576,-0.026928,-0.425725,-0.030729,0.051841,0.000529,-0.000829,0.002003,31.46274884,120.44004631,14.020894,177.82285781,-169.02552944,168.993853
1757074557.000000,370.014510,383.614897,-0.073618,-0.003640,-0.091290,-0.084741,0.992205,178.678,-169.599,170.116,8.206814,-0.626494,0.006844,-0.425765,-0.029087,0.051909,0.000527,-0.001062,0.001243,31.46274383,120.44013267,14.011272,178.67777458,-169.59873622,170.116413
1757074558.000000,378.605999,382.830991,-0.046015,0.004442,-0.091531,-0.086604,0.992019,179.590,-169.492,169.984,8.243289,-0.738329,-0.082382,-0.425634,-0.033391,0.051735,-0.000022,-0.001159,0.001464,31.46273676,120.44022307,14.039331,179.58969740,-169.49214180,169.983673
1757074559.000000,386.953333,382.260878,-0.089359,-0.001923,-0.096807,-0.079208,0.992145,178.882,-168.943,170.763,8.293889,-0.622516,-0.058157,-0.425631,-0.034197,0.051707,0.000112,-0.000914,0.001332,31.46273161,120.44031090,13.996453,178.88191502,-168.94284793,170.762647
1757074560.000000,395.422735,381.628996,-0.002547,-0.010601,-0.094136,-0.085063,0.991862,177.840,-169.343,169.995,8.372678,-0.596933,-0.096216,-0.425084,-0.043333,0.051292,0.000359,-0.000924,0.001385,31.46272591,120.44040001,14.083745,177.83972995,-169.34255437,169.994974
1757074561.000000,403.756393,380.974742,-0.051399,-0.005257,-0.095385,-0.079597,0.992239,178.505,-169.137,170.685,8.536424,-0.666265,-0.172861,-0.425385,-0.046748,0.051241,0.000368,-0.000970,0.001114,31.46272001,120.44048770,14.035376,178.50529174,-169.13748321,170.685091
1757074562.000000,412.538446,380.255811,-0.139325,-0.001655,-0.097901,-0.080430,0.991939,178.888,-168.816,170.620,8.730611,-0.676517,-0.041003,-0.425880,-0.048062,0.051297,0.000246,-0.001091,0.001239,31.46271352,120.44058010,13.947968,178.88835581,-168.81618789,170.619895
1757074563.000000,421.263740,379.624648,-0.399742,-0.003100,-0.097913,-0.086788,0.991399,178.648,-168.837,169.862,8.900993,-0.628973,-0.051765,-0.426613,-0.036084,0.051816,0.000531,-0.000967,0.001545,31.46270783,120.44067191,13.688083,178.64838073,-168.83689460,169.862010
1757074564.000000,430.424972,379.067422,-0.562283,-0.008106,-0.105475,-0.077397,0.991372,178.102,-168.002,170.872,9.082152,-0.517482,-0.031072,-0.427784,-0.030166,0.052227,0.000679,-0.000682,0.001379,31.46270280,120.44076830,13.526119,178.10189601,-168.00208769,170.872426
1757074565.000000,439.700768,378.547965,-0.580791,-0.003514,-0.096354,-0.065584,0.993178,178.855,-168.993,172.334,9.267715,-0.513338,-0.045439,-0.427977,-0.032316,0.052190,0.000468,-0.000878,0.001135,31.46269811,120.44086590,13.508213,178.85482552,-168.99282630,172.333606
1757074566.000000,449.093001,378.079966,-0.614378,0.000550,-0.101574,-0.043349,0.993883,179.549,-168.349,174.959,9.421145,-0.478640,0.056187,-0.427274,-0.028263,0.052181,0.000355,-0.000807,0.000542,31.46269388,120.44096472,13.475251,179.54882356,-168.34884696,174.959172
1757074567.000000,458.292844,377.640901,-0.549584,-0.006504,-0.090704,-0.057770,0.994180,178.636,-169.653,173.225,9.553246,-0.584922,-0.037978,-0.427736,-0.030814,0.052183,0.000433,-0.000966,0.000704,31.46268992,120.44106152,13.540673,178.63630964,-169.65345724,173.225247
1757074568.000000,467.961943,376.871340,-0.534810,-0.001934,-0.098177,-0.061119,0.993289,179.074,-168.767,172.867,9.691941,-0.753811,0.008810,-0.427200,-0.029004,0.052137,0.000213,-0.000822,0.000649,31.46268298,120.44116326,13.556103,179.07448614,-168.76699829,172.866830
1757074569.000000,477.305569,376.181828,-0.477088,-0.006179,-0.095240,-0.055186,0.993904,178.670,-169.127,173.517,9.806094,-0.773620,-0.022768,-0.427511,-0.032426,0.052086,0.000362,-0.000925,0.000402,31.46267675,120.44126157,13.614475,178.66993530,-169.12673490,173.517245
1757074570.000000,487.160279,375.547742,-0.213099,0.002686,-0.092604,-0.046656,0.994606,179.808,-169.370,174.611,9.923119,-0.736754,-0.057291,-0.426935,-0.048704,0.051459,0.000184,-0.000918,0.000363,31.46267103,120.44136526,13.879171,179.80774112,-169.37036213,174.610687
1757074571.000000,496.985887,374.886783,-0.089903,0.000073,-0.094549,-0.059981,0.993712,179.347,-169.169,173.030,10.029385,-0.711264,-0.140449,-0.427253,-0.058966,0.051180,0.000298,-0.000888,0.000703,31.46266507,120.44146864,14.003084,179.34683770,-169.16866909,173.029596
1757074572.000000,506.994480,374.137204,-0.104120,-0.002700,-0.097118,-0.060228,0.993445,179.004,-168.893,172.964,10.089488,-0.731921,-0.094490,-0.427962,-0.063576,0.051164,0.000287,-0.000951,0.000682,31.46265830,120.44157395,13.989610,179.00370392,-168.89325562,172.964462
1757074573.000000,517.081311,373.464017,-0.150140,-0.001439,-0.096103,-0.060343,0.993540,179.156,-169.001,172.968,10.166640,-0.687522,-0.144027,-0.428831,-0.067498,0.051200,0.000326,-0.000937,0.000725,31.46265223,120.44168008,13.944359,179.15606395,-169.00103621,172.967573
1757074574.000000,527.475592,372.782402,-0.229423,-0.003330,-0.095350,-0.059579,0.993654,178.951,-169.100,173.037,10.132255,-0.673450,-0.130785,-0.429728,-0.071732,0.051226,0.000352,-0.001038,0.000655,31.46264607,120.44178945,13.865886,178.95087208,-169.10018150,173.037287
1757074575.000000,537.375528,372.022507,-0.237457,0.002475,-0.097021,-0.056854,0.993654,179.643,-168.867,173.416,9.904641,-0.756819,-0.123142,-0.430584,-0.077502,0.051197,0.000173,-0.000926,0.000533,31.46263921,120.44189362,13.858634,179.64302033,-168.86669243,173.415804
1757074576.000000,547.122477,371.250727,-0.371907,0.001226,-0.094688,-0.049155,0.994292,179.599,-169.140,174.301,9.658479,-0.791513,-0.118620,-0.430047,-0.075703,0.051104,0.000185,-0.000943,0.000313,31.46263225,120.44199617,13.724966,179.59916533,-169.13963717,174.301372
1757074577.000000,556.702698,370.463121,-0.421215,-0.005012,-0.091300,-0.051510,0.994478,178.871,-169.568,173.967,9.420367,-0.767069,-0.163680,-0.430148,-0.079205,0.050983,0.000210,-0.001020,0.000339,31.46262514,120.44209697,13.676440,178.87114482,-169.56764264,173.966844
1757074578.000000,566.262279,369.634474,-0.557300,-0.000051,-0.093507,-0.055939,0.994046,179.384,-169.287,173.501,9.011582,-0.716779,-0.109542,-0.428666,-0.076396,0.050737,0.000156,-0.000949,0.000492,31.46261766,120.44219756,13.541147,179.38403828,-169.28674607,173.500535
1757074578.000000,566.262279,369.634474,-0.557300,-0.000051,-0.093507,-0.055939,0.994046,179.384,-169.287,173.501,9.011582,-0.716779,-0.109542,-0.428666,-0.076396,0.050737,0.000156,-0.000949,0.000492,31.46261766,120.44219756,13.541147,179.38403828,-169.28674607,173.500535
1757074580.000000,583.727763,368.380124,-0.603228,-0.009352,-0.103887,-0.049758,0.993300,178.307,-168.144,174.089,8.367885,-0.505601,0.056167,-0.427919,-0.078643,0.050486,0.000381,-0.000720,0.000352,31.46260634,120.44238133,13.496719,178.30686119,-168.14406459,174.088644
1757074581.000000,592.300220,367.701213,-0.492937,0.006474,-0.097629,-0.044729,0.994196,0.242,-11.227,-5.128,8.125535,-0.568863,0.062298,-0.428330,-0.081075,0.050481,0.000080,-0.000917,0.000306,31.46260021,120.44247152,13.607760,0.24181106,-11.22737158,-5.128252
1757074582.000000,600.235410,367.120746,-0.285106,0.005711,-0.098087,-0.039623,0.994372,0.209,-11.275,-4.543,7.741005,-0.564543,-0.016964,-0.428767,-0.089153,0.050283,0.000056,-0.000857,0.000218,31.46259498,120.44255502,13.816298,0.20941411,-11.27524908,-4.543037
1757074583.000000,607.955065,366.576381,-0.282048,0.006216,-0.100388,-0.028746,0.994514,0.386,-11.539,-3.272,7.540065,-0.510799,0.042142,-0.429965,-0.088065,0.050589,0.000225,-0.000905,-0.000001,31.46259006,120.44263624,13.820054,0.38553691,-11.53886330,-3.272356
1757074584.000000,615.637502,366.113910,-0.040281,0.003156,-0.099071,-0.018207,0.994909,0.156,-11.376,-2.081,7.321678,-0.433591,-0.002799,-0.430966,-0.097188,0.050469,0.000262,-0.000913,-0.000248,31.46258589,120.44271707,14.062531,0.15614758,-11.37610949,-2.081304
1757074585.000000,622.790010,365.687983,0.153304,0.003556,-0.094741,-0.019141,0.995312,0.201,-10.879,-2.184,7.193446,-0.435467,-0.026425,-0.431190,-0.104900,0.050226,0.000205,-0.001009,-0.000259,31.46258204,120.44279233,14.256786,0.20138206,-10.87862756,-2.184269
1757074586.000000,629.929548,365.250498,0.250740,0.005321,-0.092213,-0.018112,0.995560,0.423,-10.591,-2.045,7.027089,-0.422753,-0.029860,-0.431393,-0.109703,0.050084,0.000112,-0.001118,-0.000260,31.46257809,120.44286745,14.354896,0.42282448,-10.59120137,-2.045327
1757074587.000000,636.677295,364.782218,0.305937,0.011213,-0.090105,-0.011672,0.995801,1.178,-10.353,-1.236,6.594156,-0.526916,0.002295,-0.430221,-0.112073,0.049740,-0.000020,-0.001143,-0.000512,31.46257386,120.44293845,14.410736,1.17828106,-10.35318532,-1.236344
1757074588.000000,642.914752,364.204866,0.339588,0.017945,-0.082198,0.006869,0.996431,2.143,-9.414,0.966,5.562804,-0.561237,0.077751,-0.432875,-0.113137,0.050263,-0.000155,-0.001484,-0.000971,31.46256865,120.44300408,14.444978,2.14303520,-9.41378293,0.966379
1757074589.000000,647.597335,363.908490,0.397032,0.007226,-0.101884,-0.025738,0.994437,0.534,-11.713,-2.910,4.563358,-0.280102,0.075322,-0.431618,-0.115431,0.049899,0.000431,-0.000814,-0.000138,31.46256598,120.44305335,14.502879,0.53405453,-11.71276980,-2.910436
1757074590.000000,651.962067,363.647443,0.379934,-0.002699,-0.108463,-0.048863,0.992895,179.064,-167.577,174.263,4.187774,-0.379786,0.044556,-0.434153,-0.114986,0.050452,0.000374,-0.000667,0.000092,31.46256362,120.44309927,14.486210,179.06360306,-167.57733444,174.263244
1757074591.000000,655.972466,363.104650,0.400360,-0.022008,-0.101002,-0.078776,0.991518,176.517,-168.649,170.569,3.744301,-0.874756,0.021556,-0.433552,-0.115214,0.050332,0.000847,-0.000809,-0.001186,31.46255872,120.44314147,14.507016,176.51748345,-168.64872051,170.568603
1757074592.000000,659.346421,361.579608,0.462081,-0.049505,-0.099058,-0.243452,0.963570,171.624,-170.399,150.936,2.842390,-1.843779,0.010405,-0.430259,-0.114832,0.049595,0.001116,-0.001000,-0.001837,31.46254497,120.44317697,14.568997,171.62364645,-170.39853390,150.936483
1757074593.000000,661.498085,359.032784,0.408333,-0.045738,-0.091193,-0.468481,0.877563,170.394,-173.269,123.243,1.684283,-2.916780,-0.030105,-0.431295,-0.112528,0.049801,0.000759,-0.000910,-0.002021,31.46252200,120.44319961,14.515326,170.39404141,-173.26941255,123.243335
1757074594.000000,662.401028,355.628912,0.356762,-0.043610,-0.093591,-0.616931,0.780215,169.379,-174.708,102.840,0.622179,-3.804775,-0.091257,-0.433783,-0.111083,0.050211,0.000269,-0.000532,-0.002072,31.46249130,120.44320911,14.463656,169.37890796,-174.70788336,102.839594
1757074595.000000,662.379718,351.349787,0.314173,-0.037123,-0.102996,-0.660450,0.742845,168.916,-174.031,96.141,-0.240608,-4.716077,-0.120876,-0.430653,-0.103918,0.049380,-0.000074,-0.000114,-0.002330,31.46245270,120.44320888,14.420825,168.91632621,-174.03133363,96.140962
1757074596.000000,661.881934,346.286576,0.249469,-0.036958,-0.100099,-0.674207,0.730794,169.054,-174.464,94.082,-0.744116,-5.684245,-0.126055,-0.428014,-0.099710,0.048712,-0.000024,-0.000123,-0.002376,31.46240704,120.44320364,14.355790,169.05440430,-174.46415644,94.081903
1757074597.000000,661.040727,340.084056,0.166214,-0.044432,-0.087695,-0.684619,0.722242,169.359,-176.225,92.712,-1.030247,-6.568487,-0.129556,-0.426812,-0.098131,0.048379,0.000320,-0.000323,-0.002227,31.46235110,120.44319478,14.272110,169.35887401,-176.22510529,92.712054
1757074598.000000,660.066974,333.036296,-0.022329,-0.047139,-0.088359,-0.661713,0.743039,169.197,-176.048,96.253,-1.197348,-7.146882,-0.137003,-0.432582,-0.091002,0.049613,0.000646,-0.000209,-0.002988,31.46228754,120.44318453,14.083091,169.19687923,-176.04783998,96.252830
1757074599.000000,658.756434,325.554997,-0.133353,-0.056797,-0.083666,-0.684943,0.721545,168.653,-177.539,92.737,-1.224823,-7.811239,-0.116442,-0.430525,-0.086327,0.048986,0.000771,-0.000149,-0.002274,31.46222006,120.44317074,13.971541,168.65258855,-177.53940314,92.736861
1757074600.000000,657.462690,317.384295,-0.215342,-0.057681,-0.079622,-0.688015,0.719005,168.894,-177.987,92.328,-1.272332,-8.458624,-0.088492,-0.434554,-0.081816,0.049726,0.000786,-0.000265,-0.002164,31.46214637,120.44315712,13.889002,168.89386582,-177.98690801,92.327797
1757074601.000000,656.168476,308.769131,-0.282971,-0.048573,-0.079785,-0.675744,0.731194,169.683,-177.075,94.250,-1.418940,-8.998923,-0.093847,-0.436209,-0.078347,0.049905,0.000692,-0.000434,-0.002519,31.46206867,120.44314350,13.820813,169.68303246,-177.07485942,94.249769
1757074602.000000,654.884468,299.820204,-0.220499,-0.057715,-0.073393,-0.662781,0.742969,169.447,-178.135,96.357,-1.451989,-9.203823,-0.046436,-0.437356,-0.075708,0.049961,0.000804,-0.000399,-0.002902,31.46198797,120.44312998,13.882721,169.44703853,-178.13450802,96.357237
1757074603.000000,653.544344,290.850582,-0.185238,-0.057296,-0.076309,-0.658371,0.746620,169.270,-177.793,96.981,-1.516106,-9.392836,-0.072686,-0.441137,-0.076275,0.050601,0.000725,-0.000332,-0.003030,31.46190707,120.44311587,13.917425,169.27040307,-177.79343657,96.980911
1757074604.000000,651.961004,281.266226,-0.146138,-0.061364,-0.075700,-0.657283,0.747317,168.970,-178.139,97.155,-1.518853,-9.536053,-0.052401,-0.441393,-0.073117,0.050466,0.000792,-0.000267,-0.003089,31.46182063,120.44309921,13.955928,168.96953965,-178.13887637,97.155494
1757074605.000000,650.302162,271.911478,-0.058212,-0.057804,-0.078043,-0.655909,0.748566,169.101,-177.649,97.325,-1.622268,-9.619456,-0.024161,-0.441063,-0.067904,0.050188,0.000630,-0.000314,-0.003090,31.46173626,120.44308175,14.043274,169.10101577,-177.64947944,97.324672
1757074606.000000,648.579938,262.169190,0.000262,-0.056981,-0.077101,-0.655920,0.748717,169.244,-177.667,97.340,-1.680192,-9.552465,-0.027751,-0.439887,-0.064519,0.049878,0.000633,-0.000352,-0.003060,31.46164840,120.44306362,14.101161,169.24417124,-177.66722656,97.339814
1757074607.000000,646.898478,252.759343,0.062476,-0.059989,-0.070118,-0.658152,0.747208,169.513,-178.520,97.116,-1.625259,-9.253461,-0.028013,-0.440016,-0.061986,0.049779,0.000758,-0.000425,-0.002953,31.46156353,120.44304592,14.162819,169.51336871,-178.52034634,97.116013
1757074608.000000,645.249441,243.426177,0.088815,-0.060979,-0.070225,-0.656599,0.748484,169.423,-178.565,97.350,-1.539055,-8.922454,-0.012317,-0.439896,-0.060045,0.049686,0.000774,-0.000443,-0.002925,31.46147936,120.44302857,14.188624,169.42277602,-178.56475945,97.350130
1757074609.000000,643.753118,234.684952,0.109983,-0.063102,-0.069736,-0.653102,0.751407,169.282,-178.718,97.887,-1.435027,-8.580785,0.010666,-0.439908,-0.059271,0.049656,0.000798,-0.000470,-0.002928,31.46140052,120.44301282,14.209308,169.28243462,-178.71783426,97.887231
1757074610.000000,642.386615,226.418490,0.146831,-0.064875,-0.068332,-0.648906,0.755012,169.241,-178.912,98.542,-1.311679,-8.205135,0.018075,-0.440026,-0.058704,0.049658,0.000838,-0.000479,-0.002962,31.46132597,120.44299843,14.245716,169.24094638,-178.91203895,98.541725
1757074611.000000,641.065962,218.381844,0.174690,-0.062134,-0.071022,-0.645285,0.758091,169.284,-178.425,99.044,-1.204559,-7.817198,-0.025322,-0.440346,-0.058361,0.049657,0.000725,-0.000487,-0.002941,31.46125348,120.44298453,14.273158,169.28436108,-178.42454262,99.043575
1757074612.000000,639.931425,210.774870,0.136675,-0.066365,-0.074100,-0.642776,0.759569,168.688,-178.438,99.367,-1.097413,-7.435677,-0.024641,-0.440919,-0.057934,0.049835,0.000745,-0.000355,-0.002880,31.46118488,120.44297259,14.234770,168.68817304,-178.43836720,99.367027
1757074613.000000,638.797460,203.388842,0.113390,-0.067857,-0.078604,-0.653310,0.749935,168.196,-178.325,97.705,-1.089071,-7.396425,-0.013682,-0.441923,-0.057463,0.050043,0.000572,-0.000198,-0.002514,31.46111826,120.44296065,14.211128,168.19563772,-178.32488661,97.704919
1757074614.000000,637.686829,195.706946,0.230984,-0.067537,-0.083750,-0.684043,0.721464,167.754,-178.370,92.875,-1.171035,-7.928522,-0.014450,-0.446467,-0.056289,0.050726,0.000271,-0.000060,-0.001450,31.46104898,120.44294896,14.328367,167.75376395,-178.36976896,92.875278
1757074615.000000,636.410968,187.413044,0.231906,-0.061834,-0.082845,-0.693968,0.712546,168.275,-178.152,91.324,-1.359135,-8.725152,-0.001236,-0.446998,-0.055850,0.050828,0.000088,-0.000298,-0.001153,31.46097418,120.44293553,14.328909,168.27542847,-178.15247158,91.323768
1757074616.000000,634.960801,178.425972,0.197707,-0.052835,-0.080111,-0.695538,0.712052,169.232,-177.674,91.125,-1.573866,-9.496777,-0.014659,-0.445755,-0.055077,0.050683,-0.000044,-0.000511,-0.001129,31.46089313,120.44292027,14.294303,169.23180703,-177.67380254,91.125120
1757074617.000000,633.300251,168.723416,0.167535,-0.055039,-0.080226,-0.695930,0.711488,169.040,-177.848,91.060,-1.741616,-10.119094,-0.029851,-0.445676,-0.054963,0.050673,0.000026,-0.000429,-0.001115,31.46080562,120.44290279,14.263698,169.04040366,-177.84782774,91.060153
1757074618.000000,631.430279,158.014971,0.098630,-0.054209,-0.085171,-0.696237,0.710676,168.705,-177.388,90.918,-1.891471,-10.891366,-0.003943,-0.443643,-0.053786,0.050393,-0.000014,-0.000330,-0.001094,31.46070904,120.44288311,14.194329,168.70546372,-177.38792023,90.917667
1757074619.000000,629.517297,146.972868,0.085809,-0.057752,-0.082260,-0.696576,0.710408,168.651,-177.913,90.919,-1.999290,-11.649053,0.010837,-0.442668,-0.053141,0.050250,0.000018,-0.000363,-0.001107,31.46060946,120.44286298,14.181049,168.65091639,-177.91283282,90.919050
1757074620.000000,627.432564,134.848721,0.098579,-0.049244,-0.078987,-0.693826,0.714102,169.624,-177.451,91.419,-2.111575,-12.284854,0.031253,-0.441306,-0.052176,0.050041,-0.000176,-0.000626,-0.001115,31.46050011,120.44284103,14.193342,169.62352104,-177.45092872,91.418618
1757074621.000000,625.306903,122.673247,0.046230,-0.058965,-0.073050,-0.702584,0.705381,169.288,-178.843,90.119,-2.151087,-12.490127,-0.023006,-0.439736,-0.050993,0.049813,0.000148,-0.000484,-0.000790,31.46039030,120.44281866,14.140533,169.28802093,-178.84253550,90.119183
1757074622.000000,623.097211,109.788407,0.009085,-0.063403,-0.072152,-0.703286,0.704388,168.999,-179.286,90.021,-2.140012,-12.756490,-0.014734,-0.440880,-0.051565,0.050040,0.000270,-0.000447,-0.000776,31.46027410,120.44279540,14.102932,168.99922170,-179.28573496,90.020958
1757074623.000000,620.946599,96.920111,0.004740,-0.061890,-0.076893,-0.703753,0.703554,168.734,-178.792,89.865,-2.152335,-13.020874,-0.000409,-0.442265,-0.052510,0.050263,0.000059,-0.000420,-0.000672,31.46015804,120.44277277,14.098164,168.73446385,-178.79180052,89.864651
1757074624.000000,618.765997,83.761860,0.050409,-0.061308,-0.075063,-0.701467,0.706081,168.935,-178.855,90.265,-2.185983,-13.272402,-0.019547,-0.444752,-0.054381,0.050614,0.000044,-0.000449,-0.000720,31.46003937,120.44274982,14.143429,168.93495998,-178.85459586,90.264656
1757074625.000000,616.625777,70.918085,0.059909,-0.059732,-0.075179,-0.700458,0.707205,169.056,-178.702,90.425,-2.238951,-13.512502,0.000140,-0.445681,-0.055030,0.050758,0.000042,-0.000467,-0.000763,31.45992353,120.44272729,14.152561,169.05580675,-178.70185931,90.424942
1757074626.000000,614.373357,57.413875,0.094481,-0.058560,-0.071640,-0.700835,0.707297,169.439,-178.896,90.424,-2.286756,-13.624000,-0.008316,-0.447796,-0.056767,0.051094,0.000076,-0.000513,-0.000783,31.45980174,120.44270358,14.186775,169.43864285,-178.89640083,90.423887
1757074627.000000,612.106000,44.060676,0.102815,-0.060499,-0.069103,-0.700482,0.707735,169.487,-179.252,90.521,-2.302202,-13.411956,-0.006823,-0.448618,-0.057458,0.051217,0.000056,-0.000526,-0.000772,31.45968131,120.44267972,14.194780,169.48693075,-179.25189786,90.521376
1757074628.000000,609.855507,30.823793,-0.126484,-0.062788,-0.069769,-0.697298,0.710609,169.249,-179.336,91.021,-2.200367,-13.228251,-0.018690,-0.443477,-0.056447,0.050461,0.000134,-0.000550,-0.000797,31.45956192,120.44265603,13.965183,169.24867477,-179.33576910,91.020827
1757074629.000000,607.746516,17.874700,-0.166402,-0.058512,-0.068646,-0.692123,0.716122,169.697,-179.007,91.863,-2.081567,-12.928847,-0.146475,-0.444379,-0.057951,0.050559,0.000093,-0.000478,-0.000886,31.45944514,120.44263383,13.925010,169.69703438,-179.00746194,91.863185
1757074630.000000,605.621961,4.900371,-0.329627,-0.062165,-0.070667,-0.691457,0.716260,169.234,-179.125,91.936,-2.077840,-12.599761,-0.029937,-0.443115,-0.056006,0.050430,0.000019,-0.000350,-0.000841,31.45932813,120.44261147,13.761555,169.23385258,-179.12549604,91.936440
1757074631.000000,603.674300,-7.349377,-0.434751,-0.075575,-0.066388,-0.695000,0.711938,168.469,179.397,91.440,-1.972845,-12.237136,0.027527,-0.440747,-0.053256,0.050133,0.000311,-0.000299,-0.000822,31.45921765,120.44259097,13.656245,168.46887970,179.39713750,91.440314
1757074632.000000,601.708750,-19.553132,-0.360861,-0.073225,-0.066290,-0.695355,0.711846,168.671,179.573,91.385,-1.889261,-11.865692,0.000295,-0.441944,-0.055470,0.050206,0.000193,-0.000390,-0.000807,31.45910758,120.44257028,13.729971,168.67082522,179.57268826,91.385207
1757074633.000000,599.778736,-31.135162,-0.351244,-0.063375,-0.071132,-0.692681,0.714924,169.095,-179.203,91.735,-1.870683,-11.584047,-0.022057,-0.442509,-0.057035,0.050186,-0.000021,-0.000506,-0.000778,31.45900313,120.44254997,13.739448,169.09514471,-179.20297149,91.734553
1757074634.000000,597.856294,-42.797408,-0.251091,-0.056440,-0.066629,-0.690015,0.718508,170.033,-178.977,92.229,-1.787264,-11.253466,-0.095249,-0.443307,-0.059225,0.050176,-0.000059,-0.000467,-0.000812,31.45889795,120.44252974,13.839485,170.03293557,-178.97674933,92.228525
1757074635.000000,596.058416,-53.886771,-0.274829,-0.072732,-0.069700,-0.693823,0.713065,168.437,179.913,91.576,-1.796932,-10.820855,0.049911,-0.443197,-0.057321,0.050333,0.000212,-0.000351,-0.000782,31.45879793,120.44251081,13.815659,168.43705931,179.91262581,91.575946
1757074636.000000,594.210835,-64.718153,-0.120032,-0.066189,-0.071385,-0.695085,0.712306,168.841,-179.445,91.348,-1.818168,-10.528430,0.028164,-0.444531,-0.059264,0.050454,0.000115,-0.000390,-0.000799,31.45870024,120.44249137,13.970381,168.84056784,-179.44520821,91.347893
1757074637.000000,592.432576,-74.963293,-0.116806,-0.063853,-0.072103,-0.695541,0.712002,168.975,-179.206,91.263,-1.752639,-10.177606,0.054480,-0.444932,-0.058820,0.050592,0.000106,-0.000465,-0.000775,31.45860785,120.44247265,13.973551,168.97452587,-179.20644004,91.263435
1757074638.000000,590.677664,-85.376031,-0.038431,-0.067741,-0.072329,-0.691129,0.715906,168.640,-179.431,91.961,-1.656077,-9.856516,0.080800,-0.447916,-0.059843,0.051214,0.000068,-0.000464,-0.000826,31.45851393,120.44245418,14.051891,168.63964124,-179.43132924,91.961138
1757074639.000000,589.028886,-95.053274,-0.007399,-0.066097,-0.074662,-0.689089,0.717783,168.591,-179.078,92.245,-1.617240,-9.645654,0.058015,-0.449473,-0.059712,0.051616,-0.000028,-0.000402,-0.000835,31.45842666,120.44243683,14.082905,168.59109160,-179.07811903,92.244728
1757074640.000000,587.332001,-104.797301,-0.127744,-0.064880,-0.072511,-0.687774,0.719374,168.866,-179.136,92.489,-1.603846,-9.507568,0.057068,-0.448708,-0.055607,0.051766,-0.000112,-0.000484,-0.000858,31.45833878,120.44241897,13.962554,168.86567278,-179.13595933,92.488718
1757074641.000000,585.860312,-114.114719,-0.151070,-0.063877,-0.074877,-0.691834,0.715317,168.754,-178.926,91.806,-1.553919,-9.446262,0.078234,-0.449711,-0.053921,0.052162,-0.000146,-0.000488,-0.000677,31.45825474,120.44240348,13.939250,168.75384501,-178.92638557,91.806471
1757074642.000000,584.325150,-123.689982,-0.019740,-0.061750,-0.074005,-0.691360,0.716053,169.000,-178.820,91.897,-1.511519,-9.408949,0.049950,-0.451622,-0.055432,0.052486,-0.000177,-0.000585,-0.000614,31.45816839,120.44238732,14.070615,169.00049617,-178.81965577,91.896589
1757074642.000000,584.325150,-123.689982,-0.019740,-0.061750,-0.074005,-0.691360,0.716053,169.000,-178.820,91.897,-1.511519,-9.408949,0.049950,-0.451622,-0.055432,0.052486,-0.000177,-0.000585,-0.000614,31.45816839,120.44238732,14.070615,169.00049617,-178.81965577,91.896589
1757074642.000000,584.325150,-123.689982,-0.019740,-0.061750,-0.074005,-0.691360,0.716053,169.000,-178.820,91.897,-1.511519,-9.408949,0.049950,-0.451622,-0.055432,0.052486,-0.000177,-0.000585,-0.000614,31.45816839,120.44238732,14.070615,169.00049617,-178.81965577,91.896589
1757074644.000000,580.441687,-148.320429,0.424100,-0.062229,-0.074713,-0.683623,0.723329,168.917,-178.682,93.105,-1.447177,-9.554032,0.232716,-0.452861,-0.056133,0.052740,-0.000132,-0.000543,-0.000682,31.45794625,120.44234645,14.514619,168.91726820,-178.68203702,93.105169
1757074645.000000,579.041607,-157.356177,0.716933,-0.060574,-0.074622,-0.680603,0.726321,169.069,-178.513,93.580,-1.509810,-9.701314,0.231910,-0.453419,-0.057109,0.052845,-0.000133,-0.000507,-0.000822,31.45786475,120.44233171,14.807540,169.06865762,-178.51332340,93.580092
1757074646.000000,577.536464,-167.054735,0.757583,-0.061405,-0.074988,-0.689201,0.718058,168.954,-178.679,92.222,-1.640709,-9.883634,0.214704,-0.454998,-0.055000,0.053479,-0.000109,-0.000411,-0.000684,31.45777728,120.44231587,14.848298,168.95383667,-178.67915849,92.221729
1757074647.000000,575.943470,-176.552508,0.899695,-0.061948,-0.076256,-0.689346,0.717739,168.807,-178.622,92.177,-1.710619,-10.112809,0.241834,-0.455464,-0.054367,0.053731,-0.000247,-0.000291,-0.000674,31.45769163,120.44229910,14.990519,168.80693656,-178.62152318,92.176903
1757074648.000000,574.254632,-186.482393,1.047513,-0.060677,-0.076558,-0.686539,0.720501,168.894,-178.453,92.615,-1.768408,-10.240933,0.219116,-0.455765,-0.053755,0.053957,-0.000259,-0.000195,-0.000749,31.45760207,120.44228133,15.138465,168.89397243,-178.45250314,92.614901
1757074649.000000,572.609207,-196.080336,1.183034,-0.060220,-0.076453,-0.681895,0.724947,168.951,-178.354,93.346,-1.766668,-10.390249,0.225489,-0.455849,-0.053116,0.054147,-0.000272,-0.000106,-0.000824,31.45751551,120.44226401,15.274125,168.95050498,-178.35415269,93.346420
1757074650.000000,570.952759,-205.999088,1.283203,-0.056982,-0.072481,-0.679159,0.728177,169.542,-178.386,93.842,-1.754094,-10.250818,0.199459,-0.456227,-0.052242,0.054437,-0.000119,-0.000156,-0.000857,31.45742605,120.44224658,15.374455,169.54222381,-178.38640439,93.841961
1757074651.000000,569.448345,-215.261590,1.321934,-0.060965,-0.068375,-0.682619,0.725010,169.527,-179.088,93.366,-1.622512,-9.989552,0.210529,-0.456733,-0.051072,0.054811,0.000217,-0.000034,-0.000770,31.45734251,120.44223074,15.413356,169.52709669,-179.08820196,93.366359
1757074652.000000,567.851674,-225.013335,1.317562,-0.063949,-0.070376,-0.684244,0.723026,169.117,-179.183,93.079,-1.588498,-9.611259,0.197988,-0.458716,-0.049548,0.055578,0.000298,0.000064,-0.000735,31.45725456,120.44221394,15.409176,169.11713686,-179.18329961,93.079350
1757074653.000000,566.160813,-234.927597,1.320508,-0.070372,-0.071978,-0.690993,0.715818,168.450,-179.668,91.988,-1.552543,-9.356269,0.166042,-0.460286,-0.048647,0.056141,0.000146,-0.000386,-0.000571,31.45716515,120.44219614,15.412327,168.45005530,-179.66806992,91.988283
1757074654.000000,564.440544,-244.813986,1.198542,-0.065748,-0.074306,-0.707037,0.700182,168.629,-179.365,89.379,-1.621428,-9.257137,0.130656,-0.462652,-0.046177,0.057202,-0.000034,0.000034,-0.000041,31.45707598,120.44217804,15.290579,168.62920516,-179.36497760,89.378632
1757074655.000000,562.986665,-253.300959,1.020515,-0.069232,-0.075649,-0.704426,0.702331,168.239,-179.500,89.778,-1.580011,-9.273697,0.148080,-0.464213,-0.044347,0.058045,-0.000057,0.000344,0.000002,31.45699944,120.44216274,15.112754,168.23879034,-179.50021617,89.777839
1757074656.000000,561.419523,-262.670203,0.875998,-0.065162,-0.073906,-0.703642,0.703690,168.713,-179.295,89.934,-1.558791,-9.482686,0.119906,-0.465220,-0.042918,0.058728,-0.000099,0.000199,0.000084,31.45691494,120.44214624,14.968475,168.71268241,-179.29450665,89.934234
1757074657.000000,559.962150,-271.671096,0.701108,-0.064236,-0.066165,-0.702704,0.705481,169.419,-179.824,90.210,-1.594115,-9.654784,0.047449,-0.465797,-0.041695,0.059298,0.000058,0.000086,-0.000026,31.45683376,120.44213091,14.793833,169.41914818,-179.82361349,90.209658
1757074658.000000,558.379535,-280.941452,0.560981,-0.062109,-0.072480,-0.700631,0.707111,169.081,-179.114,90.443,-1.655911,-9.526674,0.062798,-0.466310,-0.040971,0.059763,-0.000085,0.000289,-0.000131,31.45675015,120.44211425,14.653968,169.08091637,-179.11352790,90.442726
1757074659.000000,556.684300,-290.202266,0.403829,-0.069665,-0.070571,-0.709428,0.697767,168.618,179.979,89.052,-1.765367,-9.427365,0.030524,-0.466802,-0.040248,0.060278,0.000002,0.000438,-0.000008,31.45666663,120.44209641,14.497081,168.61796910,179.97934488,89.052498
1757074660.000000,554.800361,-299.775134,0.194846,-0.065828,-0.074482,-0.715597,0.691404,168.601,-179.497,87.980,-1.856320,-9.491062,0.008124,-0.467258,-0.039333,0.060842,-0.000210,0.000448,0.000198,31.45658030,120.44207658,14.288375,168.60133613,-179.49683579,87.979613
1757074661.000000,553.062404,-309.051884,0.157238,-0.064608,-0.082544,-0.719792,0.686230,168.022,-178.838,87.143,-1.758262,-9.745933,0.028655,-0.467551,-0.038745,0.061024,-0.000299,0.000332,0.000553,31.45649663,120.44205829,14.251057,168.02155982,-178.83796908,87.143242
1757074662.000000,551.266855,-319.402871,0.065087,-0.064957,-0.075460,-0.711798,0.695291,168.594,-179.286,88.584,-1.700275,-10.153084,0.045270,-0.467816,-0.038106,0.061353,-0.000179,0.000125,0.000415,31.45640328,120.44203939,14.159260,168.59354041,-179.28608835,88.584448
1757074663.000000,549.678975,-329.310331,0.045511,-0.067664,-0.072166,-0.708811,0.698427,168.649,-179.720,89.127,-1.674140,-10.610537,0.009275,-0.467584,-0.037736,0.061440,-0.000109,0.000107,0.000360,31.45631392,120.44202268,14.140049,168.64870375,-179.72016637,89.126681
1757074664.000000,547.975404,-340.194652,0.052844,-0.065216,-0.076042,-0.707985,0.699086,168.529,-179.199,89.195,-1.729550,-11.094198,-0.018289,-0.467803,-0.037858,0.061454,-0.000311,0.000099,0.000406,31.45621576,120.44200475,14.147806,168.52878248,-179.19918428,89.194874
1757074665.000000,546.250077,-351.211365,-0.033300,-0.062528,-0.074861,-0.707322,0.700130,168.844,-179.062,89.323,-1.814578,-11.565546,-0.010935,-0.469190,-0.037893,0.061806,-0.000365,-0.000075,0.000402,31.45611640,120.44198659,14.062109,168.84386187,-179.06200219,89.322896
1757074666.000000,544.338703,-363.135397,-0.088240,-0.068020,-0.075756,-0.713861,0.692847,168.322,-179.550,88.242,-1.949587,-11.974942,0.010218,-0.469103,-0.037604,0.061927,-0.000184,0.000065,0.000495,31.45600886,120.44196648,14.007672,168.32151108,-179.54961342,88.242269
1757074667.000000,542.365444,-375.111717,-0.120102,-0.065638,-0.076525,-0.712989,0.693889,168.450,-179.278,88.371,-2.046749,-12.320677,-0.017278,-0.468837,-0.037505,0.061918,-0.000350,0.000023,0.000469,31.45590084,120.44194571,13.976334,168.44961602,-179.27792931,88.371323
1757074668.000000,540.323024,-387.321785,-0.160717,-0.062989,-0.071599,-0.717963,0.689518,169.066,-179.525,87.639,-2.110821,-12.499086,-0.060883,-0.469883,-0.037823,0.062098,-0.000134,-0.000168,0.000605,31.45579072,120.44192422,13.936274,169.06584328,-179.52501172,87.638908
1757074669.000000,538.249287,-399.522650,-0.210525,-0.063112,-0.070358,-0.725184,0.682038,169.156,-179.746,86.464,-2.172014,-12.517165,-0.063262,-0.471069,-0.038290,0.062238,0.000015,-0.000183,0.000755,31.45568069,120.44190239,13.887042,169.15592377,-179.74572404,86.463558
1757074670.000000,536.069492,-411.976400,-0.222373,-0.069830,-0.066050,-0.737718,0.668232,169.001,179.155,84.423,-2.197646,-12.243570,-0.074307,-0.471755,-0.038516,0.062247,0.000308,-0.000094,0.001076,31.45556837,120.44187945,13.875802,169.00064757,179.15452569,84.422566
1757074671.000000,533.834916,-423.963640,-0.245057,-0.073857,-0.065140,-0.740254,0.665076,168.771,178.699,84.004,-2.257649,-11.881463,-0.049322,-0.472141,-0.038558,0.062173,0.000305,-0.000015,0.001053,31.45546026,120.44185593,13.853716,168.77095451,178.69932926,84.003604
